[{"pk": 2, "model": "listing.category", "fields": {"name": "Indoors"}}, {"pk": 3, "model": "listing.category", "fields": {"name": "Outdoors"}}, {"pk": 4, "model": "listing.category", "fields": {"name": "Office"}}, {"pk": 5, "model": "listing.category", "fields": {"name": "Other"}}, {"pk": 2, "model": "listing.listing", "fields": {"category": 2, "city": "Berlin", "working_hours": 2, "description": "The work is not hard. Only dish washing. I'll provide gloves.", "title": "I need help washing the dishes on the weekend", "country": "Germany", "user": 2, "mobile_number": "9845654", "zipcode": "12167", "location": "POINT (1504691.5654706000350416 6903582.1919248001649976)", "address": "Scholstrasse 11", "payment_rate": 8, "payment_type": 1, "required_skills": "washing\r\nhard-working"}}, {"pk": 1, "model": "listing.listing", "fields": {"category": 3, "city": "Berlin", "working_hours": 20, "description": "My garden has different flowers and is very beautiful. Please be careful. I love my flowers very much.", "title": "Garden keeper needed in Steglitz", "country": "Germany", "user": 2, "mobile_number": "8986215", "zipcode": "12167", "location": "POINT (1502637.3203356999438256 6904327.4529504003003240)", "address": "Scholstrasse 11", "payment_rate": 15, "payment_type": 1, "required_skills": "Self-organized\r\nMust know the different flowers"}}, {"pk": 5, "model": "listing.listing", "fields": {"category": 5, "city": "Berlin", "working_hours": 3, "description": "I have a german shepherd. She is very smart  and lovely.", "title": "Walk my dog", "country": "Germany", "user": 3, "mobile_number": "64531213546", "zipcode": "12167", "location": "POINT (1482572.6004135999828577 6892709.0246527995914221)", "address": "Scholstrasse 11", "payment_rate": 11, "payment_type": 1, "required_skills": "Must love dogs.\r\nBe patient"}}, {"pk": 4, "model": "listing.listing", "fields": {"category": 3, "city": "Berlin", "working_hours": 5, "description": "I need someone to  spring my flowers with a house. This should be done every two days in the morning.", "title": "Spring flowers in my garden", "country": "Germany", "user": 3, "mobile_number": "9845654", "zipcode": "12167", "location": "POINT (1480203.0525370999239385 6892709.0246527995914221)", "address": "Scholstrasse 11", "payment_rate": 11, "payment_type": 1, "required_skills": "Careful\r\nCommited"}}, {"pk": 3, "model": "listing.listing", "fields": {"category": 4, "city": "Berlin", "working_hours": 3, "description": "I need someone to help me prepare a meal at our office for our teem building party on Saturday.", "title": "Help me prepare a meal", "country": "Germany", "user": 3, "mobile_number": "64531213546", "zipcode": "12167", "location": "POINT (1479820.8673956999555230 6893588.0504780001938343)", "address": "Scholstrasse 11", "payment_rate": 10, "payment_type": 1, "required_skills": "good cooker\r\nmust know different recipes"}}]